City_ID,City,Country,Lat,Lng,Max Temp,Humidity,Cloudiness,Wind Speed,Current Description,Date
0,Rikitea,PF,-23.1203,-134.9692,76.3,73,14,6.89,few clouds,2022-05-01 19:39:02
1,Jamestown,US,42.097,-79.2353,53.71,93,100,13.8,mist,2022-05-01 19:37:02
2,Ushuaia,AR,-54.8,-68.3,44.26,70,20,20.71,few clouds,2022-05-01 19:37:09
3,Douentza,ML,14.9951,-2.9517,92.64,13,18,4.16,few clouds,2022-05-01 19:39:11
4,Port Elizabeth,ZA,-33.918,25.5701,61.09,89,0,9.22,clear sky,2022-05-01 19:39:11
5,Mahebourg,MU,-20.4081,57.7,75.49,88,75,3.44,broken clouds,2022-05-01 19:39:12
6,Cape Town,ZA,-33.9258,18.4232,61.88,79,0,9.22,clear sky,2022-05-01 19:35:06
7,Bengkulu,ID,-3.8004,102.2655,76.53,88,100,4.41,light rain,2022-05-01 19:39:14
8,Albany,US,42.6001,-73.9662,67.93,27,100,1.01,overcast clouds,2022-05-01 19:36:17
9,Faanui,PF,-16.4833,-151.75,80.85,73,19,10.71,light rain,2022-05-01 19:39:14
10,Torbay,CA,47.6666,-52.7314,50.77,71,75,5.75,broken clouds,2022-05-01 19:39:15
11,Praia Da Vitoria,PT,38.7333,-27.0667,64.76,82,75,2.19,broken clouds,2022-05-01 19:39:16
12,Porto Santo,PT,33.072,-16.3415,64.78,82,40,13.8,scattered clouds,2022-05-01 19:39:16
13,Toledo,ES,39.8333,-4.0,61.79,55,29,3.33,scattered clouds,2022-05-01 19:39:17
14,Verkh-Usugli,RU,52.7,115.1667,44.38,74,100,4.03,overcast clouds,2022-05-01 19:39:18
15,Kaitangata,NZ,-46.2817,169.8464,47.66,94,15,5.01,few clouds,2022-05-01 19:39:18
16,Xuddur,SO,4.1213,43.8894,73.81,80,100,7.72,overcast clouds,2022-05-01 19:39:19
17,Zeya,RU,53.75,127.2667,32.0,64,100,3.85,overcast clouds,2022-05-01 19:39:19
18,Carutapera,BR,-1.195,-46.02,79.52,87,100,6.33,overcast clouds,2022-05-01 19:39:20
19,Denpasar,ID,-8.65,115.2167,82.06,88,20,5.75,few clouds,2022-05-01 19:38:27
20,Punta Arenas,CL,-53.15,-70.9167,50.11,66,0,13.8,clear sky,2022-05-01 19:38:55
21,Airai,TL,-8.9266,125.4092,58.03,86,66,3.44,broken clouds,2022-05-01 19:39:21
22,Busselton,AU,-33.65,115.3333,57.61,85,32,0.2,scattered clouds,2022-05-01 19:38:53
23,Atuona,PF,-9.8,-139.0333,78.67,80,100,14.16,light rain,2022-05-01 19:39:01
24,Panama City,PA,8.9936,-79.5197,87.75,75,40,11.5,scattered clouds,2022-05-01 19:35:35
25,Matara,LK,5.9485,80.5353,78.26,91,90,10.33,overcast clouds,2022-05-01 19:39:22
26,Port Shepstone,ZA,-30.7414,30.455,64.2,73,3,8.32,clear sky,2022-05-01 19:39:22
27,Axim,GH,4.8699,-2.2405,81.0,82,48,8.99,scattered clouds,2022-05-01 19:39:23
28,Port Hedland,AU,-20.3167,118.5667,77.05,57,100,8.05,overcast clouds,2022-05-01 19:39:24
29,Butaritari,KI,3.0707,172.7902,81.57,77,72,12.88,broken clouds,2022-05-01 19:39:24
30,Nkhata Bay,MW,-11.6066,34.2907,69.98,73,20,6.85,few clouds,2022-05-01 19:39:25
31,Inuvik,CA,68.3499,-133.7218,45.46,51,40,9.22,scattered clouds,2022-05-01 19:39:25
32,Paita,PE,-5.0892,-81.1144,74.3,70,63,13.06,broken clouds,2022-05-01 19:39:26
33,Clyde River,CA,70.4692,-68.5914,14.23,85,100,16.11,light snow,2022-05-01 19:39:27
34,Shingu,JP,33.7333,135.9833,48.04,69,100,6.98,overcast clouds,2022-05-01 19:39:27
35,Khatanga,RU,71.9667,102.5,13.14,91,97,9.98,overcast clouds,2022-05-01 19:38:59
36,Narsaq,GL,60.9167,-46.05,48.42,69,24,3.27,few clouds,2022-05-01 19:39:28
37,Cortland,US,42.6001,-76.083,69.67,31,100,9.73,overcast clouds,2022-05-01 19:39:28
38,Mar Del Plata,AR,-38.0023,-57.5575,55.42,75,75,12.66,broken clouds,2022-05-01 19:39:29
39,Hilo,US,19.7297,-155.09,77.29,93,100,6.91,moderate rain,2022-05-01 19:39:29
40,Xinzhi,CN,36.4989,111.7047,58.33,25,3,2.73,clear sky,2022-05-01 19:39:30
41,Qaanaaq,GL,77.484,-69.3632,12.43,72,20,2.93,few clouds,2022-05-01 19:39:30
42,Joshimath,IN,30.5667,79.5667,59.63,46,5,6.67,clear sky,2022-05-01 19:39:30
43,Hambantota,LK,6.1241,81.1185,81.1,82,100,16.31,overcast clouds,2022-05-01 19:39:31
44,Yumen,CN,40.2833,97.2,47.12,17,0,3.15,clear sky,2022-05-01 19:39:31
45,Puerto Ayora,EC,-0.7393,-90.3518,80.56,81,69,8.86,broken clouds,2022-05-01 19:39:01
46,Hermanus,ZA,-34.4187,19.2345,57.79,88,4,9.95,clear sky,2022-05-01 19:38:58
47,Paamiut,GL,61.994,-49.6678,34.41,88,100,3.67,overcast clouds,2022-05-01 19:39:32
48,Mataura,NZ,-46.1927,168.8643,44.47,98,7,2.84,clear sky,2022-05-01 19:38:55
49,Vaini,TO,-21.2,-175.2,78.96,94,75,6.91,broken clouds,2022-05-01 19:38:52
50,Kahului,US,20.8947,-156.47,75.22,81,40,14.97,light rain,2022-05-01 19:35:17
51,Yellowknife,CA,62.456,-114.3525,43.32,49,20,16.11,few clouds,2022-05-01 19:39:32
52,Hobart,AU,-42.8794,147.3294,59.25,76,79,5.75,broken clouds,2022-05-01 19:34:39
53,Arklow,IE,52.7931,-6.1414,55.08,97,98,4.97,overcast clouds,2022-05-01 19:37:59
54,Gannan,CN,47.9147,123.5031,39.0,72,39,7.16,scattered clouds,2022-05-01 19:39:33
55,Camacha,PT,33.0833,-16.3333,62.02,82,40,13.8,scattered clouds,2022-05-01 19:39:33
56,North Battleford,CA,52.7834,-108.2847,56.41,40,100,5.75,overcast clouds,2022-05-01 19:39:34
57,Fazalpur,PK,32.1833,75.0667,83.79,26,0,8.5,clear sky,2022-05-01 19:39:34
58,New Norfolk,AU,-42.7826,147.0587,58.91,77,84,1.01,broken clouds,2022-05-01 19:39:35
59,Pevek,RU,69.7008,170.3133,6.33,80,91,5.46,overcast clouds,2022-05-01 19:39:35
60,Saint-Philippe,RE,-21.3585,55.7679,74.21,83,3,2.59,clear sky,2022-05-01 19:39:35
61,Thompson,CA,55.7435,-97.8558,28.56,80,100,12.66,overcast clouds,2022-05-01 19:39:36
62,Mazamari,PE,-11.3258,-74.5308,84.22,58,80,2.39,broken clouds,2022-05-01 19:39:36
63,Hithadhoo,MV,-0.6,73.0833,85.66,70,100,15.61,overcast clouds,2022-05-01 19:39:37
64,Khani,GE,41.9563,42.9566,44.17,99,100,1.63,overcast clouds,2022-05-01 19:39:37
65,Constitucion,CL,-35.3333,-72.4167,58.17,63,99,13.6,overcast clouds,2022-05-01 19:38:58
66,Avarua,CK,-21.2078,-159.775,78.85,94,100,2.3,overcast clouds,2022-05-01 19:39:00
67,Shenjiamen,CN,29.9576,122.298,55.47,74,100,3.65,overcast clouds,2022-05-01 19:39:38
68,Tuktoyaktuk,CA,69.4541,-133.0374,35.6,75,0,8.05,clear sky,2022-05-01 19:39:38
69,Ribeira Grande,PT,38.5167,-28.7,64.8,77,75,3.44,broken clouds,2022-05-01 19:39:03
70,Lompoc,US,34.6391,-120.4579,72.84,63,0,25.99,clear sky,2022-05-01 19:39:39
71,Esperance,AU,-33.8667,121.9,53.44,69,0,5.75,clear sky,2022-05-01 19:36:37
72,Rassvet,RU,46.8333,40.75,54.34,59,100,3.8,overcast clouds,2022-05-01 19:39:39
73,Lebu,CL,-37.6167,-73.65,54.95,80,39,14.65,scattered clouds,2022-05-01 19:39:39
74,Bluff,NZ,-46.6,168.3333,44.8,85,14,10.07,few clouds,2022-05-01 19:39:40
75,Sulangan,PH,11.1373,123.7228,81.5,77,67,11.63,broken clouds,2022-05-01 19:39:40
76,Muros,ES,42.7762,-9.0603,57.83,68,10,9.08,clear sky,2022-05-01 19:39:41
77,Rio Branco,BR,-9.9747,-67.81,86.61,84,20,4.61,few clouds,2022-05-01 19:37:35
78,Lagoa,PT,39.05,-27.9833,62.67,73,13,1.57,few clouds,2022-05-01 19:39:41
79,Arraial Do Cabo,BR,-22.9661,-42.0278,84.16,74,0,14.97,clear sky,2022-05-01 19:39:02
80,Provideniya,RU,64.3833,-173.3,27.03,67,30,11.72,scattered clouds,2022-05-01 19:39:42
81,Khujner,IN,23.7833,76.6,92.77,22,4,20.36,clear sky,2022-05-01 19:39:42
82,Vardo,NO,70.3705,31.1107,17.58,86,20,4.61,few clouds,2022-05-01 19:39:42
83,Inawashiro,JP,37.5667,140.1167,38.77,96,58,5.5,broken clouds,2022-05-01 19:39:43
84,Vila Velha,BR,-20.3297,-40.2925,85.95,63,0,8.05,clear sky,2022-05-01 19:39:43
85,Mustasaari,FI,63.1142,21.6822,40.95,75,0,6.91,light rain,2022-05-01 19:39:44
86,Anadyr,RU,64.75,177.4833,16.3,85,0,2.24,clear sky,2022-05-01 19:39:44
87,Cabo San Lucas,MX,22.8909,-109.9124,82.62,47,40,5.75,scattered clouds,2022-05-01 19:39:13
88,Kropotkin,RU,45.4375,40.5756,50.0,94,100,11.59,light rain,2022-05-01 19:39:45
89,Placido De Castro,BR,-10.3353,-67.1856,87.64,56,100,2.15,overcast clouds,2022-05-01 19:39:45
90,Chilca,PE,-12.5211,-76.7372,66.76,85,88,6.08,overcast clouds,2022-05-01 19:39:46
91,Galesong,ID,-5.3166,119.3661,77.02,78,55,7.78,broken clouds,2022-05-01 19:39:46
92,Bhainsdehi,IN,21.6467,77.6325,87.04,22,20,9.13,few clouds,2022-05-01 19:39:46
93,Kimbe,PG,-5.5502,150.1429,74.88,93,16,2.64,few clouds,2022-05-01 19:39:47
94,Bathsheba,BB,13.2167,-59.5167,86.61,66,40,17.27,scattered clouds,2022-05-01 19:39:47
95,Nisia Floresta,BR,-6.0911,-35.2086,86.38,80,71,10.11,broken clouds,2022-05-01 19:39:48
96,Coquimbo,CL,-29.9533,-71.3436,62.33,72,0,8.05,clear sky,2022-05-01 19:39:48
97,Do Gonbadan,IR,30.3586,50.7981,71.69,49,0,0.0,clear sky,2022-05-01 19:39:49
98,Scottsbluff,US,41.8666,-103.6672,61.79,35,20,14.97,few clouds,2022-05-01 19:37:20
99,Ucluelet,CA,48.9329,-125.5528,53.91,80,100,1.99,overcast clouds,2022-05-01 19:39:49
100,Berlevag,NO,70.8578,29.0864,22.95,86,75,6.91,broken clouds,2022-05-01 19:39:50
101,Longyearbyen,SJ,78.2186,15.6401,13.84,67,75,5.75,light snow,2022-05-01 19:39:50
102,Ixtapa,MX,20.7,-105.2,78.03,73,75,16.11,broken clouds,2022-05-01 19:39:50
103,Lumsden,CA,50.6501,-104.8678,59.95,51,100,8.84,overcast clouds,2022-05-01 19:39:51
104,Gawler,AU,-34.6,138.7333,56.71,93,1,3.06,clear sky,2022-05-01 19:39:51
105,East London,ZA,-33.0153,27.9116,62.96,76,0,8.5,clear sky,2022-05-01 19:39:52
106,Baykit,RU,61.67,96.37,20.12,94,44,2.57,scattered clouds,2022-05-01 19:39:52
107,Port Alfred,ZA,-33.5906,26.891,58.17,91,2,1.99,clear sky,2022-05-01 19:39:52
108,Tabory,RU,58.5198,64.5495,38.21,85,98,5.64,overcast clouds,2022-05-01 19:39:53
109,Cururupu,BR,-1.8283,-44.8683,79.63,88,91,3.78,light rain,2022-05-01 19:39:53
110,Souillac,MU,-20.5167,57.5167,75.58,88,75,3.44,broken clouds,2022-05-01 19:39:54
111,Khalkhal,IR,37.6189,48.5258,46.58,89,100,3.94,overcast clouds,2022-05-01 19:39:54
112,Dikson,RU,73.5069,80.5464,7.54,99,100,11.05,overcast clouds,2022-05-01 19:39:54
113,Barsovo,RU,61.1667,73.1667,28.53,76,100,4.72,overcast clouds,2022-05-01 19:39:55
114,Mareeba,AU,-17.0,145.4333,68.72,95,69,1.3,broken clouds,2022-05-01 19:39:55
115,Roald,NO,62.5833,6.1333,47.34,76,75,19.57,broken clouds,2022-05-01 19:39:56
116,Puerto Escondido,MX,15.85,-97.0667,88.63,62,40,8.05,scattered clouds,2022-05-01 19:36:06
117,Riosucio,CO,5.4216,-75.7032,69.73,82,98,3.0,overcast clouds,2022-05-01 19:39:56
118,Juba,SS,4.8517,31.5825,72.95,84,76,3.02,moderate rain,2022-05-01 19:39:57
119,Ambilobe,MG,-13.2,49.05,73.63,96,65,2.98,broken clouds,2022-05-01 19:39:57
120,Tasiilaq,GL,65.6145,-37.6368,32.16,59,87,10.45,overcast clouds,2022-05-01 19:39:58
121,Los Alamos,US,35.8881,-106.307,75.43,9,0,11.99,clear sky,2022-05-01 19:37:35
122,Cherskiy,RU,68.75,161.3,20.43,87,18,8.41,few clouds,2022-05-01 19:39:58
123,Kuusamo,FI,65.9667,29.1833,32.04,80,100,3.44,overcast clouds,2022-05-01 19:39:59
124,Mogadishu,SO,2.0371,45.3438,83.46,76,100,14.74,light rain,2022-05-01 19:39:20
125,Villa San Giovanni,IT,38.2276,15.6386,63.28,64,0,5.75,clear sky,2022-05-01 19:37:25
126,Lorengau,PG,-2.0226,147.2712,80.58,81,73,5.77,broken clouds,2022-05-01 19:39:59
127,General Teran,MX,25.2667,-99.6833,96.39,34,29,19.19,scattered clouds,2022-05-01 19:40:00
128,Naze,JP,28.3667,129.4833,63.52,63,100,13.24,overcast clouds,2022-05-01 19:40:00
129,Gizo,SB,-8.103,156.8419,81.72,75,51,5.73,broken clouds,2022-05-01 19:40:00
130,Zhanakorgan,KZ,43.9098,67.2495,71.49,40,100,5.53,overcast clouds,2022-05-01 19:40:01
131,Ambulu,ID,-8.345,113.6058,76.35,90,100,3.51,overcast clouds,2022-05-01 19:40:01
132,Katsuura,JP,35.1333,140.3,54.14,83,100,14.45,overcast clouds,2022-05-01 19:39:00
133,Grand Gaube,MU,-20.0064,57.6608,75.6,82,9,1.01,clear sky,2022-05-01 19:40:02
134,Zabol,AF,32.25,67.25,73.58,15,100,6.26,overcast clouds,2022-05-01 19:40:02
135,Owando,CG,-0.4819,15.8999,76.62,73,100,3.06,overcast clouds,2022-05-01 19:40:03
136,Port-Gentil,GA,-0.7193,8.7815,82.36,83,75,6.91,broken clouds,2022-05-01 19:40:03
137,Bambous Virieux,MU,-20.3428,57.7575,75.45,88,75,3.44,broken clouds,2022-05-01 19:40:04
138,Iqaluit,CA,63.7506,-68.5145,26.33,86,75,6.91,broken clouds,2022-05-01 19:40:04
139,Acapulco,MX,16.8634,-99.8901,85.82,62,0,9.22,clear sky,2022-05-01 19:40:05
140,Panzhihua,CN,26.5851,101.7128,53.64,81,100,2.59,overcast clouds,2022-05-01 19:40:05
141,Moshi,TZ,-3.35,37.3333,73.78,84,96,2.48,overcast clouds,2022-05-01 19:40:05
142,Barrow,US,71.2906,-156.7887,19.42,93,100,14.97,overcast clouds,2022-05-01 19:38:55
143,Damaturu,NG,11.747,11.9608,93.24,27,73,7.45,broken clouds,2022-05-01 19:40:06
144,Kapaa,US,22.0752,-159.319,78.78,81,40,20.71,scattered clouds,2022-05-01 19:40:06
145,Deputatskiy,RU,69.3,139.9,22.08,83,100,4.85,overcast clouds,2022-05-01 19:40:07
146,Panacan,PH,9.2463,118.4082,79.84,81,90,3.91,overcast clouds,2022-05-01 19:40:07
147,Bandipur,NP,27.9333,84.4167,62.31,76,100,1.88,overcast clouds,2022-05-01 19:40:08
148,Tezu,IN,27.9167,96.1667,71.1,70,100,3.42,overcast clouds,2022-05-01 19:40:08
149,Olinda,BR,-8.0089,-34.8553,80.33,83,75,6.91,broken clouds,2022-05-01 19:40:09
150,Leningradskiy,RU,69.3833,178.4167,10.2,78,44,6.96,scattered clouds,2022-05-01 19:40:09
151,Wolfville,CA,45.0835,-64.3655,44.17,82,100,12.66,moderate rain,2022-05-01 19:38:36
152,Mingrelskaya,RU,45.0134,38.3379,48.22,89,100,12.17,light rain,2022-05-01 19:40:10
153,Bredasdorp,ZA,-34.5322,20.0403,56.68,93,0,4.09,clear sky,2022-05-01 19:40:10
154,Saskylakh,RU,71.9167,114.0833,3.31,98,55,6.22,broken clouds,2022-05-01 19:34:16
155,Mandalay,MM,21.9747,96.0836,85.42,51,1,4.12,clear sky,2022-05-01 19:39:21
156,Grindavik,IS,63.8424,-22.4338,42.75,65,0,8.05,clear sky,2022-05-01 19:40:11
157,Nanortalik,GL,60.1432,-45.2371,37.92,85,100,4.32,overcast clouds,2022-05-01 19:40:11
158,Huancavelica,PE,-12.7667,-74.9833,50.94,52,66,9.06,broken clouds,2022-05-01 19:40:12
159,Bintulu,MY,3.1667,113.0333,77.41,100,20,3.44,few clouds,2022-05-01 19:40:12
160,Nikolskoye,RU,59.7035,30.7861,42.69,86,49,4.65,scattered clouds,2022-05-01 19:40:12
161,Nortelandia,BR,-14.4547,-56.8028,90.95,37,6,4.52,clear sky,2022-05-01 19:40:13
162,Nizhniy Odes,RU,63.6445,54.856,24.53,89,26,3.87,scattered clouds,2022-05-01 19:40:13
163,Kavieng,PG,-2.5744,150.7967,81.9,76,43,7.67,scattered clouds,2022-05-01 19:40:14
164,Husavik,IS,66.0449,-17.3389,28.45,74,100,10.76,overcast clouds,2022-05-01 19:40:14
165,Hokitika,NZ,-42.7167,170.9667,57.92,93,100,5.32,overcast clouds,2022-05-01 19:40:15
166,Moerai,PF,-22.4333,-151.3333,77.32,76,100,7.96,overcast clouds,2022-05-01 19:40:15
167,Kruisfontein,ZA,-34.0033,24.7314,55.89,92,0,5.14,clear sky,2022-05-01 19:40:15
168,Hamilton,US,39.1834,-84.5333,75.97,34,0,23.02,clear sky,2022-05-01 19:40:16
169,Cidreira,BR,-30.1811,-50.2056,65.64,74,100,8.55,overcast clouds,2022-05-01 19:40:16
170,Kodiak,US,57.79,-152.4072,42.31,81,100,24.16,light rain,2022-05-01 19:36:01
171,Bonavista,CA,48.6499,-53.1147,38.41,95,100,7.94,light rain,2022-05-01 19:40:17
172,Tiksi,RU,71.6872,128.8694,16.92,89,98,13.56,overcast clouds,2022-05-01 19:40:17
173,Mount Gambier,AU,-37.8333,140.7667,57.11,100,100,9.22,overcast clouds,2022-05-01 19:40:18
174,Harper,LR,4.375,-7.7169,80.76,81,100,8.72,overcast clouds,2022-05-01 19:40:18
175,Bethel,US,41.3712,-73.414,71.65,33,0,6.91,clear sky,2022-05-01 19:40:18
176,Saint George,US,37.1041,-113.5841,79.43,15,0,21.85,clear sky,2022-05-01 19:37:47
177,Fuerte Olimpo,PY,-21.0415,-57.8738,92.28,30,89,3.11,overcast clouds,2022-05-01 19:40:19
178,Coihaique,CL,-45.5752,-72.0662,54.21,66,75,4.61,broken clouds,2022-05-01 19:40:19
179,Norman Wells,CA,65.282,-126.8329,48.24,46,75,18.41,broken clouds,2022-05-01 19:40:20
180,Lakselv,NO,70.0513,24.9718,28.22,93,97,8.05,overcast clouds,2022-05-01 19:40:20
181,Hami,CN,42.8,93.45,62.19,11,4,5.32,clear sky,2022-05-01 19:40:21
182,Saldanha,ZA,-33.0117,17.9442,57.25,81,0,10.89,clear sky,2022-05-01 19:40:21
183,Sierra Vista,US,31.5545,-110.3037,85.69,8,0,20.71,clear sky,2022-05-01 19:40:21
184,Kenai,US,60.5544,-151.2583,48.25,51,0,9.22,clear sky,2022-05-01 19:40:22
185,Adrar,MR,20.5022,-10.0711,85.57,10,1,9.1,clear sky,2022-05-01 19:40:22
186,Luderitz,NA,-26.6481,15.1594,70.48,32,0,8.21,clear sky,2022-05-01 19:40:23
187,Abu Dhabi,AE,24.4667,54.3667,82.51,65,0,4.61,clear sky,2022-05-01 19:40:23
188,Romodanovo,RU,54.4275,45.3296,39.74,55,48,5.82,scattered clouds,2022-05-01 19:40:24
189,Carnarvon,AU,-24.8667,113.6333,62.67,82,0,4.61,clear sky,2022-05-01 19:40:24
190,Bria,CF,6.5423,21.9863,69.44,95,100,6.26,overcast clouds,2022-05-01 19:40:24
191,Tilichiki,RU,60.4667,166.1,16.11,91,34,6.98,scattered clouds,2022-05-01 19:40:25
192,Kismayo,SO,-0.3582,42.5454,81.12,81,100,14.16,light rain,2022-05-01 19:40:25
193,Todos Santos,MX,23.45,-110.2167,71.44,57,90,8.25,overcast clouds,2022-05-01 19:40:26
194,Chuy,UY,-33.6971,-53.4616,61.77,58,0,10.22,clear sky,2022-05-01 19:40:26
195,Qostanay,KZ,53.1667,63.5833,37.69,93,0,4.47,clear sky,2022-05-01 19:40:27
196,Gravdal,NO,68.1214,13.5031,40.89,93,75,12.66,light rain,2022-05-01 19:40:27
197,Klyuchi,RU,52.2667,79.1667,65.37,68,100,6.51,overcast clouds,2022-05-01 19:40:27
198,Saurimo,AO,-9.6608,20.3916,70.03,58,100,3.94,overcast clouds,2022-05-01 19:40:28
199,Broken Hill,AU,-31.95,141.4333,46.11,87,0,0.0,clear sky,2022-05-01 19:40:28
200,Cockburn Town,TC,21.4612,-71.1419,78.76,73,75,17.27,broken clouds,2022-05-01 19:40:29
201,Ponta Do Sol,PT,32.6667,-17.1,67.12,60,0,3.89,clear sky,2022-05-01 19:40:29
202,Bafoulabe,ML,13.8065,-10.8321,99.68,21,22,3.83,few clouds,2022-05-01 19:40:30
203,Fortuna,US,40.5982,-124.1573,61.93,71,0,12.66,clear sky,2022-05-01 19:40:30
204,Guymon,US,36.6828,-101.4816,77.0,20,20,23.02,few clouds,2022-05-01 19:40:30
205,Gerash,IR,27.6652,54.1371,77.14,37,0,8.08,clear sky,2022-05-01 19:40:31
206,Labuhan,ID,-6.8844,112.2051,79.11,87,100,10.09,overcast clouds,2022-05-01 19:40:31
207,Hervey Bay,AU,-25.2986,152.8535,67.01,95,100,11.99,light rain,2022-05-01 19:40:32
208,Haines Junction,CA,60.7522,-137.5108,40.95,60,100,4.61,overcast clouds,2022-05-01 19:40:32
209,Daoukro,CI,7.0591,-3.9631,80.6,73,100,3.29,overcast clouds,2022-05-01 19:40:33
210,Margate,GB,51.3813,1.3862,54.3,68,100,1.01,overcast clouds,2022-05-01 19:40:33
211,Sur,OM,22.5667,59.5289,84.11,57,0,8.23,clear sky,2022-05-01 19:40:33
212,Padang,ID,-0.9492,100.3543,77.25,88,100,4.21,overcast clouds,2022-05-01 19:40:34
213,Okha,RU,53.5739,142.9478,29.37,95,100,4.45,overcast clouds,2022-05-01 19:40:34
214,Port Moresby,PG,-9.4431,147.1797,74.62,94,40,4.41,scattered clouds,2022-05-01 19:35:50
215,Singaraja,ID,-8.112,115.0882,79.66,83,99,3.09,overcast clouds,2022-05-01 19:40:35
216,Corner Brook,CA,48.9667,-57.9484,39.36,99,100,4.0,overcast clouds,2022-05-01 19:39:40
217,Kortkeros,RU,61.8106,51.5806,32.18,80,91,4.21,overcast clouds,2022-05-01 19:40:35
218,Hauterive,FR,46.0901,3.4459,56.16,86,56,3.47,broken clouds,2022-05-01 19:40:36
219,Embonas,GR,36.2269,27.8564,60.93,80,79,11.59,broken clouds,2022-05-01 19:40:36
220,Vagay,RU,57.9375,69.0217,36.01,79,100,4.29,overcast clouds,2022-05-01 19:40:37
221,Otterup,DK,55.5153,10.3976,47.26,75,49,8.55,scattered clouds,2022-05-01 19:40:37
222,Hirado,JP,33.3597,129.5531,58.82,49,100,13.02,overcast clouds,2022-05-01 19:40:38
223,Georgetown,MY,5.4112,100.3354,82.33,93,20,2.3,few clouds,2022-05-01 19:37:04
224,Bubaque,GW,11.2833,-15.8333,77.94,76,22,18.19,few clouds,2022-05-01 19:40:38
225,Olafsvik,IS,64.8945,-23.7142,36.54,61,17,18.5,few clouds,2022-05-01 19:40:38
226,Caborca,MX,30.5838,-111.101,87.24,11,0,18.25,clear sky,2022-05-01 19:40:39
227,Dhidhdhoo,MV,6.8833,73.1,85.08,75,72,15.61,broken clouds,2022-05-01 19:40:39
228,Alice Springs,AU,-23.7,133.8833,56.75,72,75,0.0,broken clouds,2022-05-01 19:40:40
229,Riacho De Santana,BR,-13.6092,-42.9389,84.52,36,54,9.73,broken clouds,2022-05-01 19:40:40
230,Sarh,TD,9.1429,18.3923,87.98,42,21,3.18,few clouds,2022-05-01 19:40:41
231,Sinnamary,GF,5.3833,-52.95,81.19,76,48,11.52,scattered clouds,2022-05-01 19:40:41
232,San Rafael,AR,-34.6177,-68.3301,63.88,23,1,7.94,clear sky,2022-05-01 19:40:41
233,Lac Du Bonnet,CA,50.2536,-96.0612,34.88,97,100,13.49,overcast clouds,2022-05-01 19:40:42
234,Mackay,AU,-21.15,149.2,70.68,94,40,8.05,light rain,2022-05-01 19:40:42
235,Bac Lieu,VN,9.285,105.7244,82.2,81,94,4.76,overcast clouds,2022-05-01 19:40:43
236,Waipawa,NZ,-41.4122,175.5153,57.96,77,100,12.48,overcast clouds,2022-05-01 19:40:43
237,Port Hardy,CA,50.6996,-127.4199,53.78,71,100,6.91,overcast clouds,2022-05-01 19:40:44
238,Honolulu,US,21.3069,-157.8583,78.62,72,75,16.11,light rain,2022-05-01 19:36:33
239,Palembang,ID,-2.9167,104.7458,75.96,96,85,4.07,overcast clouds,2022-05-01 19:40:44
240,Dharchula,IN,29.85,80.5333,64.67,47,100,6.31,overcast clouds,2022-05-01 19:40:44
241,Magnor,SE,59.9511,12.1996,47.93,47,82,6.4,broken clouds,2022-05-01 19:40:45
242,Kisangani,CD,0.5167,25.2,72.46,90,100,2.62,light rain,2022-05-01 19:40:45
243,Badiraguato,MX,25.3667,-107.5167,88.7,8,100,7.45,overcast clouds,2022-05-01 19:40:46
244,Gornyy,RU,55.1153,83.9059,45.43,83,100,4.7,overcast clouds,2022-05-01 19:40:46
245,Ancud,CL,-41.8697,-73.8203,53.65,84,72,6.76,broken clouds,2022-05-01 19:40:46
246,Miloslavskoye,RU,53.5815,39.4399,41.94,59,100,7.02,overcast clouds,2022-05-01 19:40:47
247,Sibolga,ID,1.7427,98.7792,76.14,89,100,3.27,overcast clouds,2022-05-01 19:40:47
248,Xai-Xai,MZ,-25.0519,33.6442,69.53,81,3,8.28,light rain,2022-05-01 19:40:48
249,Ketchikan,US,55.3422,-131.6461,45.07,93,100,10.36,mist,2022-05-01 19:39:12
250,Flin Flon,CA,54.7682,-101.865,31.84,80,100,11.5,overcast clouds,2022-05-01 19:40:48
251,Vanderhoof,CA,54.0166,-124.0198,57.0,41,100,7.67,overcast clouds,2022-05-01 19:39:22
252,Sisimiut,GL,66.9395,-53.6735,31.17,62,11,6.46,few clouds,2022-05-01 19:40:49
253,Chokurdakh,RU,70.6333,147.9167,19.8,99,82,10.6,broken clouds,2022-05-01 19:40:49
254,Beringovskiy,RU,63.05,179.3167,14.94,87,95,14.09,overcast clouds,2022-05-01 19:40:49
255,Porto Walter,BR,-8.2686,-72.7439,90.05,47,65,0.51,broken clouds,2022-05-01 19:40:50
256,Healdsburg,US,38.6105,-122.8692,78.98,34,0,3.0,clear sky,2022-05-01 19:40:50
257,Geraldton,AU,-28.7667,114.6,54.01,82,0,4.61,clear sky,2022-05-01 19:40:51
258,Srednekolymsk,RU,67.45,153.6833,31.23,89,100,1.99,overcast clouds,2022-05-01 19:37:05
259,Luena,AO,-11.7833,19.9167,59.61,63,26,4.52,scattered clouds,2022-05-01 19:40:51
260,Yuncheng,CN,35.0231,110.9928,52.68,33,0,3.71,clear sky,2022-05-01 19:40:52
261,Rabaul,PG,-4.1967,152.1721,79.32,79,18,2.95,few clouds,2022-05-01 19:40:52
262,Hanzhong,CN,33.0728,107.0303,49.19,51,34,1.81,scattered clouds,2022-05-01 19:40:52
263,Bilibino,RU,68.0546,166.4372,10.92,77,45,1.99,scattered clouds,2022-05-01 19:40:53
264,Turinskaya Sloboda,RU,57.6232,64.3858,40.03,88,96,9.66,light rain,2022-05-01 19:40:53
265,Castro,BR,-24.7911,-50.0119,67.08,84,39,4.76,scattered clouds,2022-05-01 19:40:54
266,Dickinson,US,29.4608,-95.0513,86.04,77,75,11.5,broken clouds,2022-05-01 19:40:54
267,Sao Filipe,CV,14.8961,-24.4956,74.34,73,0,11.41,clear sky,2022-05-01 19:40:55
268,Vaitape,PF,-16.5167,-151.75,80.85,73,19,10.69,light rain,2022-05-01 19:40:55
269,Miajadas,ES,39.1513,-5.9084,62.78,47,2,9.57,clear sky,2022-05-01 19:40:55
270,Bredy,RU,52.4153,60.3411,46.45,63,73,13.09,broken clouds,2022-05-01 19:40:56
271,Garowe,SO,8.4054,48.4845,82.24,65,22,14.74,light rain,2022-05-01 19:40:56
272,Codrington,AU,-38.2667,141.9667,58.89,82,100,8.46,overcast clouds,2022-05-01 19:40:57
273,Victoria,HK,22.2855,114.1577,64.94,93,100,5.99,light rain,2022-05-01 19:39:04
274,Meulaboh,ID,4.1363,96.1285,76.66,90,100,3.33,overcast clouds,2022-05-01 19:40:57
275,Maridi,SS,4.9158,29.4742,71.01,79,25,4.92,scattered clouds,2022-05-01 19:40:57
276,Kayes,ML,14.0,-11.0,99.97,20,51,4.72,broken clouds,2022-05-01 19:40:58
277,Sitka,US,57.0531,-135.33,48.09,71,100,8.05,overcast clouds,2022-05-01 19:40:58
278,Russkaya Polyana,UA,49.417,31.9201,48.38,67,37,3.78,scattered clouds,2022-05-01 19:40:59
279,San Cristobal,VE,7.7669,-72.225,86.18,61,25,6.26,scattered clouds,2022-05-01 19:38:56
280,Pisco,PE,-13.7,-76.2167,69.85,68,0,6.91,clear sky,2022-05-01 19:40:59
281,Skibbereen,IE,51.55,-9.2667,54.1,92,75,10.78,broken clouds,2022-05-01 19:41:00
282,Atar,MR,20.5169,-13.0499,91.33,7,0,6.35,clear sky,2022-05-01 19:41:00
283,Ilulissat,GL,69.2167,-51.1,26.62,43,0,5.75,clear sky,2022-05-01 19:38:57
284,Liku,ID,-0.7275,119.8922,75.83,87,64,2.71,broken clouds,2022-05-01 19:41:00
285,Mocuba,MZ,-16.8392,36.9856,65.25,97,0,3.42,clear sky,2022-05-01 19:41:01
286,Masumbwe,TZ,-3.6333,32.1833,63.45,92,99,3.33,light rain,2022-05-01 19:41:01
287,Alto Araguaia,BR,-17.3147,-53.2153,81.3,47,9,4.03,clear sky,2022-05-01 19:41:02
288,Camopi,GF,3.1655,-52.3158,80.91,75,73,5.28,broken clouds,2022-05-01 19:41:02
289,Moose Factory,CA,51.2585,-80.6094,48.2,57,0,16.11,clear sky,2022-05-01 19:38:44
290,Vostok,RU,46.4856,135.8833,28.31,89,96,2.95,overcast clouds,2022-05-01 19:40:17
291,Nantucket,US,41.2835,-70.0995,62.74,60,0,10.36,clear sky,2022-05-01 19:41:03
292,Arawa,PG,-6.2132,155.5367,76.3,92,93,0.87,overcast clouds,2022-05-01 19:41:03
293,Hailey,US,43.5196,-114.3153,54.81,62,75,8.05,broken clouds,2022-05-01 19:41:04
294,Severo-Kurilsk,RU,50.6789,156.125,34.34,86,80,10.09,broken clouds,2022-05-01 19:38:58
295,Half Moon Bay,US,37.4636,-122.4286,74.88,52,0,19.57,clear sky,2022-05-01 19:39:27
296,Liwonde,MW,-15.0506,35.2035,62.56,84,0,2.28,clear sky,2022-05-01 19:41:04
297,Pinega,RU,64.7001,43.3936,24.58,87,51,4.94,broken clouds,2022-05-01 19:41:05
298,Ahipara,NZ,-35.1667,173.1667,59.88,85,100,5.55,overcast clouds,2022-05-01 19:41:05
299,Laurens,US,32.4502,-82.9165,86.43,49,40,4.61,scattered clouds,2022-05-01 19:37:03
300,Mahajanga,MG,-15.7167,46.3167,80.62,74,20,4.61,few clouds,2022-05-01 19:41:06
301,Metro,ID,-5.1131,105.3067,75.24,93,98,4.76,overcast clouds,2022-05-01 19:41:06
302,Maceio,BR,-9.6658,-35.7353,83.64,69,40,10.36,scattered clouds,2022-05-01 19:41:07
303,Vanimo,PG,-2.6741,141.3028,76.96,90,96,4.63,moderate rain,2022-05-01 19:41:07
304,Noumea,NC,-22.2763,166.4572,77.0,99,91,10.58,overcast clouds,2022-05-01 19:41:07
305,Kars,TR,40.602,43.095,46.85,100,75,11.5,light intensity shower rain,2022-05-01 19:41:08
306,Salon,IN,26.0333,81.45,88.29,39,3,13.8,clear sky,2022-05-01 19:41:08
307,Bulungu,CD,-4.55,18.6,70.66,97,90,4.21,light rain,2022-05-01 19:41:09
308,Abu Kamal,SY,34.4506,40.9171,73.08,50,0,6.69,clear sky,2022-05-01 19:41:09
309,Tual,ID,-5.6667,132.75,83.61,74,74,12.53,light rain,2022-05-01 19:41:10
310,Beian,NO,63.6559,9.5683,47.55,76,75,24.16,broken clouds,2022-05-01 19:41:10
311,Sisophon,KH,13.5859,102.9737,77.45,88,100,5.44,moderate rain,2022-05-01 19:41:10
312,Tateyama,JP,34.9833,139.8667,60.1,83,100,9.66,overcast clouds,2022-05-01 19:41:11
313,Salalah,OM,17.0151,54.0924,86.09,84,40,6.91,scattered clouds,2022-05-01 19:41:11
314,Morondava,MG,-20.2833,44.2833,74.44,73,0,12.93,clear sky,2022-05-01 19:41:12
315,Chapleau,CA,47.8405,-83.4034,50.09,40,100,13.8,overcast clouds,2022-05-01 19:41:12
316,Sechura,PE,-5.5569,-80.8222,76.32,63,42,13.42,scattered clouds,2022-05-01 19:41:12
317,Ronne,DK,55.1009,14.7066,44.51,81,75,3.44,broken clouds,2022-05-01 19:41:13
318,Emerald,AU,-23.5333,148.1667,66.34,82,75,6.91,broken clouds,2022-05-01 19:39:30
319,Aksarka,RU,66.5606,67.7975,8.94,91,15,5.77,few clouds,2022-05-01 19:41:14
320,Sakakah,SA,29.9697,40.2064,78.37,28,0,14.16,clear sky,2022-05-01 19:41:14
321,Kangaatsiaq,GL,68.3065,-53.4641,21.07,74,1,9.75,clear sky,2022-05-01 19:41:14
322,Rio Grande,BR,-32.035,-52.0986,71.71,68,0,10.47,clear sky,2022-05-01 19:41:15
323,Roma,US,43.2128,-75.4557,70.38,25,0,6.91,clear sky,2022-05-01 19:39:37
324,Kokoda,PG,-8.8785,147.7407,74.39,97,91,0.78,overcast clouds,2022-05-01 19:41:15
325,Shirokiy,RU,49.758,129.523,39.07,55,92,4.32,overcast clouds,2022-05-01 19:41:16
326,Talara,PE,-4.5772,-81.2719,75.96,64,0,14.97,clear sky,2022-05-01 19:41:16
327,College,US,64.8569,-147.8028,53.29,40,100,6.91,overcast clouds,2022-05-01 19:41:17
328,Tocopilla,CL,-22.092,-70.1979,67.73,71,18,8.77,few clouds,2022-05-01 19:41:17
329,Camocim,BR,-2.9022,-40.8411,80.96,85,85,7.27,overcast clouds,2022-05-01 19:41:18
330,Nambucca Heads,AU,-30.65,153.0,62.6,82,24,4.9,few clouds,2022-05-01 19:41:18
331,Syamzha,RU,60.0158,41.0614,29.5,95,57,5.01,broken clouds,2022-05-01 19:41:19
332,Goodyear,US,33.4353,-112.3582,95.83,8,0,14.97,clear sky,2022-05-01 19:41:19
333,Pangnirtung,CA,66.1451,-65.7125,26.6,93,100,9.22,light snow,2022-05-01 19:41:20
334,Ostrovnoy,RU,68.0531,39.5131,18.64,89,80,7.85,broken clouds,2022-05-01 19:41:20
335,Marystown,CA,47.1666,-55.1483,42.26,88,100,5.19,overcast clouds,2022-05-01 19:41:20
336,Larsnes,NO,62.2028,5.5773,48.61,76,95,12.48,overcast clouds,2022-05-01 19:41:21
337,Kotka,FI,60.4664,26.9458,43.86,80,40,8.1,scattered clouds,2022-05-01 19:41:21
338,Lodja,CD,-3.4833,23.4333,67.44,97,100,2.19,overcast clouds,2022-05-01 19:41:22
339,Lethem,GY,3.3803,-59.7968,93.38,34,24,17.25,few clouds,2022-05-01 19:41:22
340,Goderich,CA,43.7501,-81.7165,53.92,76,100,18.41,overcast clouds,2022-05-01 19:37:17
341,Hopkinsville,US,36.8656,-87.4886,77.07,53,0,15.32,clear sky,2022-05-01 19:36:29
342,Inhambane,MZ,-23.865,35.3833,67.98,94,20,0.0,few clouds,2022-05-01 19:39:35
343,Lerwick,GB,60.1545,-1.1494,46.4,95,100,9.42,overcast clouds,2022-05-01 19:41:23
344,Namibe,AO,-15.1961,12.1522,74.46,66,9,8.79,clear sky,2022-05-01 19:41:23
345,Avera,US,33.194,-82.5271,84.54,54,100,7.67,overcast clouds,2022-05-01 19:41:24
346,San Patricio,US,28.017,-97.5169,90.32,56,66,18.72,broken clouds,2022-05-01 19:38:54
347,Hasaki,JP,35.7333,140.8333,50.4,72,100,19.53,overcast clouds,2022-05-01 19:41:24
348,Safaga,EG,26.7292,33.9365,79.39,38,10,8.97,clear sky,2022-05-01 19:41:25
349,Outjo,NA,-20.1167,16.15,71.76,30,81,4.43,broken clouds,2022-05-01 19:41:25
350,Tabou,CI,4.423,-7.3528,80.92,80,95,7.94,overcast clouds,2022-05-01 19:41:25
351,Waingapu,ID,-9.6567,120.2641,77.9,87,95,8.95,overcast clouds,2022-05-01 19:41:26
352,Saint-Joseph,RE,-21.3667,55.6167,73.78,81,2,2.86,clear sky,2022-05-01 19:41:26
353,Meiktila,MM,20.8667,95.8667,86.81,43,26,4.99,scattered clouds,2022-05-01 19:41:27
354,Samarai,PG,-10.6167,150.6667,79.92,81,37,7.92,light rain,2022-05-01 19:41:27
355,Dumas,US,35.8656,-101.9732,75.61,29,40,29.93,scattered clouds,2022-05-01 19:41:27
356,Elat,IL,29.5581,34.9482,82.24,23,0,6.91,clear sky,2022-05-01 19:41:28
357,Vila Franca Do Campo,PT,37.7167,-25.4333,64.81,79,43,2.53,scattered clouds,2022-05-01 19:41:28
358,Tashara,RU,55.5195,83.5094,44.02,79,100,6.11,overcast clouds,2022-05-01 19:41:29
359,Shimoni,KE,-4.6476,39.3817,80.82,77,22,18.05,light rain,2022-05-01 19:41:29
360,Birakan,RU,49.0167,131.7,33.15,84,100,0.54,overcast clouds,2022-05-01 19:41:30
361,Marsabit,KE,2.3284,37.9899,66.58,80,99,12.62,overcast clouds,2022-05-01 19:41:30
362,Juneau,US,58.3019,-134.4197,46.85,92,100,11.5,light rain,2022-05-01 19:41:30
363,Adre,TD,13.4667,22.2,86.43,10,68,2.64,broken clouds,2022-05-01 19:41:31
364,Jurm,AF,36.8648,70.8342,68.32,33,43,3.42,scattered clouds,2022-05-01 19:41:31
365,Kutum,SD,14.2,24.6667,82.71,9,42,8.28,scattered clouds,2022-05-01 19:41:32
366,Laguna,US,38.421,-121.4238,75.49,35,0,16.11,clear sky,2022-05-01 19:40:14
367,Port Blair,IN,11.6667,92.75,78.84,94,40,2.3,mist,2022-05-01 19:41:32
368,Tarko-Sale,RU,64.9225,77.785,21.02,86,57,10.2,broken clouds,2022-05-01 19:41:33
369,Deep River,CA,46.1001,-77.4995,64.94,42,89,11.88,overcast clouds,2022-05-01 19:41:33
370,Rehti,IN,22.7333,77.4333,92.88,22,35,9.4,scattered clouds,2022-05-01 19:41:33
371,Aklavik,CA,68.2191,-135.0107,44.6,53,40,8.05,scattered clouds,2022-05-01 19:41:34
372,Alyangula,AU,-13.8483,136.4192,69.67,100,6,0.0,clear sky,2022-05-01 19:41:34
373,Namatanai,PG,-3.6667,152.4333,79.29,82,55,5.86,light rain,2022-05-01 19:41:35
374,Baie-Comeau,CA,49.2168,-68.1489,44.28,65,0,8.05,clear sky,2022-05-01 19:41:35
375,Mosquera,CO,4.7059,-74.2302,68.09,49,75,12.66,broken clouds,2022-05-01 19:41:35
376,Port Macquarie,AU,-31.4333,152.9167,57.88,69,95,3.51,overcast clouds,2022-05-01 19:41:36
377,Broome,US,42.2506,-75.833,71.53,24,100,5.01,overcast clouds,2022-05-01 19:41:36
378,Moramanga,MG,-18.9333,48.2,63.75,99,6,2.21,clear sky,2022-05-01 19:41:37
379,Murgab,TM,37.4966,61.9714,71.47,53,100,13.8,overcast clouds,2022-05-01 19:41:37
380,Nome,US,64.5011,-165.4064,39.27,65,0,23.02,clear sky,2022-05-01 19:41:37
381,Vila,PT,42.0304,-8.1588,48.7,79,12,3.22,few clouds,2022-05-01 19:41:38
382,Aparecida Do Taboado,BR,-20.0867,-51.0936,88.47,30,35,5.35,scattered clouds,2022-05-01 19:37:39
383,Zlobin,HR,45.2924,14.6541,52.9,66,75,19.57,light rain,2022-05-01 19:41:38
384,Rancho Palos Verdes,US,33.7445,-118.387,75.42,72,40,8.99,scattered clouds,2022-05-01 19:41:39
385,Aripuana,BR,-9.1667,-60.6333,85.05,69,82,0.51,broken clouds,2022-05-01 19:40:14
386,Los Llanos De Aridane,ES,28.6585,-17.9182,66.13,82,0,13.8,clear sky,2022-05-01 19:41:39
387,Nidzica,PL,53.3605,20.4275,49.59,83,100,5.84,overcast clouds,2022-05-01 19:41:40
388,Abatskoye,RU,56.2875,70.4555,36.16,99,100,3.62,overcast clouds,2022-05-01 19:41:40
389,Sola,VU,-13.8833,167.55,81.82,72,100,2.86,overcast clouds,2022-05-01 19:41:40
390,Brae,GB,60.3964,-1.353,46.94,93,100,8.43,overcast clouds,2022-05-01 19:41:41
391,San Rafael Del Sur,NI,11.8485,-86.4384,94.17,51,100,6.38,overcast clouds,2022-05-01 19:41:41
392,Bowen,AU,-20.0167,148.2333,69.28,88,38,9.91,scattered clouds,2022-05-01 19:41:42
393,Tyup,KG,42.7276,78.3648,53.78,44,85,1.95,overcast clouds,2022-05-01 19:41:42
394,Berberati,CF,4.2612,15.7922,72.21,71,21,1.14,few clouds,2022-05-01 19:41:43
395,Alta Floresta,BR,-9.8756,-56.0861,91.22,52,40,3.44,scattered clouds,2022-05-01 19:41:43
396,Mapiripan,CO,2.8892,-72.1256,85.14,64,100,1.07,overcast clouds,2022-05-01 19:41:43
397,Abalak,RU,58.1286,68.5944,36.27,76,100,5.21,overcast clouds,2022-05-01 19:41:44
398,Yinchuan,CN,38.4681,106.2731,56.52,13,9,4.38,clear sky,2022-05-01 19:41:44
399,Ban Nahin,LA,18.2418,104.2122,70.48,61,91,5.06,overcast clouds,2022-05-01 19:41:45
400,Mangrol,IN,21.1167,70.1167,82.63,89,0,10.11,clear sky,2022-05-01 19:41:45
401,Sangamner,IN,19.5667,74.2167,79.21,63,3,10.33,clear sky,2022-05-01 19:41:45
402,Mecca,SA,21.4267,39.8261,84.51,60,3,4.21,clear sky,2022-05-01 19:41:46
403,Sorland,NO,67.667,12.6934,40.86,79,100,23.13,light rain,2022-05-01 19:41:46
404,Vauvert,FR,43.7,4.2833,64.36,42,0,6.91,clear sky,2022-05-01 19:41:47
405,Isangel,VU,-19.55,169.2667,79.25,88,93,7.34,light rain,2022-05-01 19:41:47
406,Pangoa,PE,-12.1167,-73.0,83.52,53,61,3.47,broken clouds,2022-05-01 19:41:47
407,Qaqortoq,GL,60.7167,-46.0333,40.03,81,42,5.99,scattered clouds,2022-05-01 19:41:48
408,Kavaratti,IN,10.5669,72.642,84.49,72,69,9.86,broken clouds,2022-05-01 19:41:48
409,Puerto Narino,CO,-3.7703,-70.3831,81.66,87,77,0.89,broken clouds,2022-05-01 19:41:49
410,Muroto,JP,33.2833,134.15,58.68,66,100,2.98,overcast clouds,2022-05-01 19:41:49
411,Roquetas De Mar,ES,36.7642,-2.6148,69.62,61,95,10.31,overcast clouds,2022-05-01 19:41:50
412,Tayu,ID,-6.5397,111.0518,78.58,90,100,8.95,overcast clouds,2022-05-01 19:41:50
413,Hailar,CN,49.2,119.7,38.26,40,99,10.31,overcast clouds,2022-05-01 19:41:50
414,Podgornoye,RU,51.735,39.1496,35.82,60,0,0.0,clear sky,2022-05-01 19:41:51
415,Phulji,PK,26.8825,67.6807,96.87,20,54,15.5,broken clouds,2022-05-01 19:41:51
416,New Albany,US,38.2856,-85.8241,78.89,30,0,21.85,clear sky,2022-05-01 19:40:13
417,Soc Trang,VN,9.6033,105.98,80.42,86,94,3.18,overcast clouds,2022-05-01 19:41:52
418,Raudeberg,NO,61.9875,5.1352,45.27,81,98,18.54,overcast clouds,2022-05-01 19:41:52
419,Linxia,CN,35.6003,103.2064,39.63,62,0,3.83,clear sky,2022-05-01 19:41:53
420,Sorong,ID,-0.8833,131.25,78.64,87,100,6.6,overcast clouds,2022-05-01 19:41:53
421,Kieta,PG,-6.2167,155.6333,78.6,85,96,2.57,overcast clouds,2022-05-01 19:41:53
422,Kroya,ID,-7.6331,109.2461,77.16,89,41,3.38,scattered clouds,2022-05-01 19:41:54
423,Mnogovershinnyy,RU,53.9353,139.9242,25.9,98,100,1.52,overcast clouds,2022-05-01 19:41:54
424,Livingstone,ZM,-17.8419,25.8543,64.69,51,9,3.04,clear sky,2022-05-01 19:41:55
425,Itarema,BR,-2.9248,-39.9167,80.53,81,89,13.85,overcast clouds,2022-05-01 19:41:55
426,Yendi,GH,9.4427,-0.0099,86.29,51,100,4.14,overcast clouds,2022-05-01 19:41:55
427,Bealanana,MG,-14.55,48.7333,62.49,93,72,1.83,broken clouds,2022-05-01 19:41:56
428,Champerico,GT,14.3,-91.9167,93.74,64,72,9.44,broken clouds,2022-05-01 19:41:56
429,Sibu,MY,2.3,111.8167,77.31,94,40,0.0,scattered clouds,2022-05-01 19:41:57
430,Marawi,PH,7.9986,124.2928,70.0,97,97,0.96,overcast clouds,2022-05-01 19:41:57
431,Dongsheng,CN,39.8161,109.9776,49.96,23,97,8.88,overcast clouds,2022-05-01 19:41:57
432,Solnechnyy,RU,50.7214,136.6319,28.58,96,89,3.6,overcast clouds,2022-05-01 19:41:58
433,Zhigansk,RU,66.7697,123.3711,9.07,94,63,13.76,broken clouds,2022-05-01 19:41:58
434,Oranjemund,NA,-28.55,16.4333,62.38,47,0,4.72,clear sky,2022-05-01 19:41:59
435,Mayo,US,38.8876,-76.5119,65.07,82,100,10.36,heavy intensity rain,2022-05-01 19:41:35
436,Rawatsar,IN,29.2833,74.3833,90.43,19,0,12.62,clear sky,2022-05-01 19:41:59
437,Belomorsk,RU,64.5232,34.7668,33.04,90,100,2.51,overcast clouds,2022-05-01 19:42:00
438,Celestun,MX,20.8667,-90.4,86.41,63,15,14.85,few clouds,2022-05-01 19:42:00
439,Awbari,LY,26.5921,12.7805,72.21,36,0,19.33,clear sky,2022-05-01 19:42:00
440,Zhezkazgan,KZ,47.8043,67.7144,62.73,51,97,8.21,overcast clouds,2022-05-01 19:42:01
441,Alta,NO,69.9689,23.2717,33.19,73,75,9.22,broken clouds,2022-05-01 19:42:01
442,General Bravo,MX,25.8,-99.1667,96.3,35,55,24.56,broken clouds,2022-05-01 19:42:02
443,Baherden,TM,38.4362,57.4316,64.54,83,100,3.69,light rain,2022-05-01 19:42:02
444,Vrangel,RU,42.7297,133.0839,38.86,90,41,4.47,scattered clouds,2022-05-01 19:42:03
445,Dong Hoi,VN,17.4833,106.6,67.57,93,100,18.88,overcast clouds,2022-05-01 19:42:03
446,Rabo De Peixe,PT,37.8,-25.5833,63.91,77,20,9.22,few clouds,2022-05-01 19:42:03
447,Nabire,ID,-3.3667,135.4833,75.29,93,99,4.09,overcast clouds,2022-05-01 19:42:04
448,Poopo,BO,-18.3667,-66.9667,63.37,17,2,6.73,clear sky,2022-05-01 19:42:04
449,Fjerritslev,DK,57.0813,9.2664,48.06,73,73,6.13,broken clouds,2022-05-01 19:42:05
450,Lasa,IT,46.6166,10.7002,52.68,90,99,4.43,overcast clouds,2022-05-01 19:42:05
451,Oriximina,BR,-1.7656,-55.8661,83.61,79,27,2.42,heavy intensity rain,2022-05-01 19:42:05
452,Amahai,ID,-3.3333,128.9167,78.66,86,67,2.53,broken clouds,2022-05-01 19:42:06
453,Porto Nacional,BR,-10.7081,-48.4172,89.6,66,94,2.86,overcast clouds,2022-05-01 19:42:06
454,Taoudenni,ML,22.6783,-3.9836,83.53,18,2,9.8,clear sky,2022-05-01 19:42:07
455,Iisalmi,FI,63.5592,27.1907,28.51,95,99,3.56,overcast clouds,2022-05-01 19:42:07
456,Costesti,RO,44.6667,24.8833,54.1,60,98,5.14,overcast clouds,2022-05-01 19:42:08
457,Debre Tabor,ET,11.85,38.0167,64.74,39,33,2.98,scattered clouds,2022-05-01 19:42:08
458,Hualmay,PE,-11.0964,-77.6139,70.09,76,38,7.96,scattered clouds,2022-05-01 19:42:08
459,Gualaquiza,EC,-3.4,-78.55,78.87,53,87,3.31,light rain,2022-05-01 19:42:09
460,Naryan-Mar,RU,67.6713,53.087,12.49,94,79,9.19,broken clouds,2022-05-01 19:42:09
461,Chapais,CA,49.7834,-74.8492,55.18,64,67,8.14,broken clouds,2022-05-01 19:42:10
462,Louis Trichardt,ZA,-23.0439,29.9032,57.15,78,3,5.08,clear sky,2022-05-01 19:42:10
463,Zaozhuang,CN,34.8647,117.5542,53.08,34,0,4.5,clear sky,2022-05-01 19:42:11
464,Cardonal,MX,20.6,-99.1333,76.86,39,63,4.47,broken clouds,2022-05-01 19:42:11
465,Dingle,PH,10.9995,122.6711,76.01,88,100,5.53,overcast clouds,2022-05-01 19:42:11
466,Boulder City,US,35.9786,-114.8325,83.62,12,0,12.66,clear sky,2022-05-01 19:42:12
467,Mon,IN,26.75,95.1,63.91,93,60,3.47,broken clouds,2022-05-01 19:42:13
468,Altay,CN,47.8667,88.1167,55.33,27,60,10.56,broken clouds,2022-05-01 19:42:13
469,Plettenberg Bay,ZA,-34.0527,23.3716,57.49,86,0,4.56,clear sky,2022-05-01 19:42:14
470,Darnah,LY,32.767,22.6367,66.61,64,83,25.19,broken clouds,2022-05-01 19:42:15
471,Seoul,KR,37.5683,126.9778,46.0,90,20,2.3,mist,2022-05-01 19:39:04
472,Bandarbeyla,SO,9.4942,50.8122,84.07,78,42,8.61,scattered clouds,2022-05-01 19:39:55
473,Burayevo,RU,55.8407,55.4083,32.04,64,0,5.39,clear sky,2022-05-01 19:42:15
474,Byron Bay,AU,-28.65,153.6167,62.71,77,3,11.07,clear sky,2022-05-01 19:42:16
475,Kewanee,US,41.2456,-89.9248,52.79,79,100,16.13,overcast clouds,2022-05-01 19:42:17
476,Cap Malheureux,MU,-19.9842,57.6142,74.46,82,7,1.01,clear sky,2022-05-01 19:42:17
477,Morant Bay,JM,17.8815,-76.4093,85.62,74,100,11.12,overcast clouds,2022-05-01 19:42:18
478,Kansanshi,ZM,-12.0951,26.4273,56.16,75,7,3.69,clear sky,2022-05-01 19:42:18
479,Shache,CN,38.4167,77.2406,60.71,18,11,5.99,few clouds,2022-05-01 19:42:19
480,Dicabisagan,PH,17.0818,122.4157,77.36,86,88,2.15,overcast clouds,2022-05-01 19:42:20
481,Gayeri,BF,12.6497,0.4931,97.03,21,95,5.14,overcast clouds,2022-05-01 19:42:20
482,Lermontovka,RU,47.1453,134.3383,35.24,84,98,2.15,overcast clouds,2022-05-01 19:42:21
483,Carman,CA,49.4992,-98.0016,39.54,81,100,19.57,overcast clouds,2022-05-01 19:42:21
484,Havoysund,NO,70.9963,24.6622,28.63,71,98,19.08,overcast clouds,2022-05-01 19:42:22
485,Petropavlovsk-Kamchatskiy,RU,53.0452,158.6483,32.59,80,75,4.47,broken clouds,2022-05-01 19:42:23
486,Cayenne,GF,4.9333,-52.3333,86.04,14,40,10.36,scattered clouds,2022-05-01 19:42:23
487,Ulaangom,MN,49.9811,92.0667,53.74,27,96,1.9,overcast clouds,2022-05-01 19:42:24
488,Farafangana,MG,-22.8167,47.8333,72.03,85,0,4.85,clear sky,2022-05-01 19:39:41
489,Key West,US,24.5557,-81.7826,87.8,59,0,14.97,clear sky,2022-05-01 19:42:24
490,Freeport,US,40.6576,-73.5832,71.15,41,0,13.8,clear sky,2022-05-01 19:42:25
491,Santa Quiteria,BR,-4.3319,-40.1567,80.73,76,100,2.95,overcast clouds,2022-05-01 19:42:26
492,Erdaojiang,CN,41.7764,126.0319,32.43,84,7,1.57,clear sky,2022-05-01 19:42:26
493,Marshfield,US,44.6689,-90.1718,50.68,93,100,16.11,mist,2022-05-01 19:42:27
494,Kununurra,AU,-15.7667,128.7333,78.78,47,57,10.36,broken clouds,2022-05-01 19:41:45
495,Ampanihy,MG,-24.7,44.75,66.27,89,8,4.81,clear sky,2022-05-01 19:42:27
496,Trinidad,BO,-14.8333,-64.9,91.38,52,40,9.22,scattered clouds,2022-05-01 19:42:28
497,Mitsamiouli,KM,-11.3847,43.2844,80.83,73,14,13.27,few clouds,2022-05-01 19:42:28
498,Kampot,KH,10.6167,104.1833,80.46,84,100,3.6,overcast clouds,2022-05-01 19:42:29
499,Huarmey,PE,-10.0681,-78.1522,70.86,76,56,9.17,broken clouds,2022-05-01 19:42:29
500,Dawson Creek,CA,55.7666,-120.2362,44.24,81,100,9.22,overcast clouds,2022-05-01 19:42:29
501,Pokrovsk,UA,48.282,37.1758,45.36,69,14,8.1,few clouds,2022-05-01 19:42:30
502,Isla Mujeres,MX,21.2311,-86.731,84.25,66,2,11.32,clear sky,2022-05-01 19:42:30
503,Bordighera,IT,43.7806,7.6645,61.14,78,25,3.0,scattered clouds,2022-05-01 19:42:31
504,Kalabo,ZM,-14.97,22.6814,63.16,58,2,4.99,clear sky,2022-05-01 19:42:31
505,Awjilah,LY,29.1081,21.2869,94.33,14,100,14.45,overcast clouds,2022-05-01 19:42:31
506,Zhangzhou,CN,24.5133,117.6556,58.93,94,100,2.33,overcast clouds,2022-05-01 19:42:32
507,Marienburg,PL,54.0359,19.0266,48.88,76,100,4.94,overcast clouds,2022-05-01 19:39:13
508,Pehowa,IN,29.9833,76.5833,84.6,32,0,8.41,clear sky,2022-05-01 19:42:32
509,Lahij,YE,13.1667,44.5833,83.84,43,69,4.16,broken clouds,2022-05-01 19:42:33
510,Rumonge,BI,-3.9736,29.4386,71.26,85,100,4.12,light rain,2022-05-01 19:42:33
511,San Quintin,MX,30.4833,-115.95,65.59,67,1,13.78,clear sky,2022-05-01 19:42:33
512,Ust-Tsilma,RU,65.441,52.1498,23.38,94,75,5.97,broken clouds,2022-05-01 19:42:34
513,Portland,US,45.5234,-122.6762,63.28,68,40,5.75,scattered clouds,2022-05-01 19:36:11
514,Candelaria,PH,13.9311,121.4233,78.39,93,100,4.21,overcast clouds,2022-05-01 19:42:35
515,Itoman,JP,26.1247,127.6694,64.42,88,75,16.11,heavy intensity rain,2022-05-01 19:42:35
516,Lewistown,US,40.5992,-77.5714,55.18,100,100,0.0,moderate rain,2022-05-01 19:42:36
517,Gat,IL,31.61,34.7642,65.39,100,0,2.01,clear sky,2022-05-01 19:42:36
518,Estelle,US,29.8458,-90.1067,86.0,70,75,11.5,broken clouds,2022-05-01 19:40:33
519,Touros,BR,-5.1989,-35.4608,81.91,76,95,14.29,overcast clouds,2022-05-01 19:37:58
520,Soyo,AO,-6.1349,12.3689,78.15,90,100,5.7,overcast clouds,2022-05-01 19:42:37
521,Alofi,NU,-19.0595,-169.9187,80.49,89,100,5.75,overcast clouds,2022-05-01 19:42:37
522,Tomatlan,MX,19.9333,-105.25,89.33,35,22,10.94,few clouds,2022-05-01 19:42:38
523,Prince Rupert,CA,54.3161,-130.3201,46.49,81,100,32.21,light rain,2022-05-01 19:41:05
524,Saint-Louis,SN,16.3333,-15.0,103.64,13,16,15.37,few clouds,2022-05-01 19:42:38
525,Porto Novo,BJ,6.4965,2.6036,82.54,76,100,7.4,overcast clouds,2022-05-01 19:42:39
526,Rovaniemi,FI,66.5,25.7167,35.01,69,100,12.66,light snow,2022-05-01 19:42:39
527,Aykhal,RU,66.0,111.5,2.23,93,13,7.07,few clouds,2022-05-01 19:42:39
528,Vestmanna,FO,62.1564,-7.1664,45.52,71,100,14.97,overcast clouds,2022-05-01 19:38:53
529,Henties Bay,NA,-22.116,14.2845,61.77,75,0,4.21,clear sky,2022-05-01 19:42:40
530,Boende,CD,-0.2167,20.8667,73.99,86,78,3.27,broken clouds,2022-05-01 19:42:40
531,Vestmannaeyjar,IS,63.4427,-20.2734,45.09,56,100,15.82,overcast clouds,2022-05-01 19:42:41
532,San Jeronimo,PE,-11.9472,-75.2829,64.11,47,24,6.62,few clouds,2022-05-01 19:42:41
533,Shizunai,JP,42.3339,142.3669,43.74,96,99,1.48,overcast clouds,2022-05-01 19:42:42
534,Upernavik,GL,72.7868,-56.1549,11.55,79,98,3.87,overcast clouds,2022-05-01 19:42:42
535,Tarakan,ID,3.3,117.6333,78.93,86,100,6.13,overcast clouds,2022-05-01 19:42:43
536,Puro,PH,12.4841,123.3827,78.96,81,100,9.01,overcast clouds,2022-05-01 19:42:43
537,Palu,ID,-0.8917,119.8707,75.96,93,47,2.66,scattered clouds,2022-05-01 19:42:43
538,Kloulklubed,PW,7.0419,134.2556,75.7,79,100,15.48,overcast clouds,2022-05-01 19:42:44
539,Torrelavega,ES,43.3494,-4.0479,58.64,91,82,4.0,broken clouds,2022-05-01 19:42:44
540,Staryy Nadym,RU,65.6118,72.6842,20.71,93,100,1.19,overcast clouds,2022-05-01 19:42:45
541,Oxford,GB,51.7522,-1.256,51.96,84,75,4.61,broken clouds,2022-05-01 19:42:20
542,Kamenka,RU,51.3223,42.7678,40.35,57,22,5.01,few clouds,2022-05-01 19:40:10
543,Cedar City,US,37.6775,-113.0619,61.39,20,100,20.71,overcast clouds,2022-05-01 19:42:45
544,Maxixe,MZ,-23.8597,35.3472,67.82,94,20,0.0,few clouds,2022-05-01 19:42:46
545,Kinsale,IE,51.7075,-8.5306,54.23,100,75,6.91,light rain,2022-05-01 19:42:46
546,Ayr,GB,55.4627,-4.6339,56.5,76,40,4.61,scattered clouds,2022-05-01 19:41:24
547,Polyanka,UA,50.2584,27.6881,45.5,75,24,6.24,few clouds,2022-05-01 19:42:47
548,Kinlochleven,GB,56.7115,-4.9661,54.28,87,97,2.26,overcast clouds,2022-05-01 19:42:47
549,Tsuruoka,JP,38.7217,139.8217,45.88,83,46,5.3,scattered clouds,2022-05-01 19:42:47
550,Rocha,UY,-34.4833,-54.3333,57.4,65,0,11.21,clear sky,2022-05-01 19:42:48
551,Rawson,AR,-43.3002,-65.1023,53.04,52,100,7.0,overcast clouds,2022-05-01 19:42:48
552,Maragogi,BR,-9.0122,-35.2225,78.42,83,73,9.15,broken clouds,2022-05-01 19:42:49
553,Guerrero Negro,MX,27.9769,-114.0611,70.25,52,0,15.19,clear sky,2022-05-01 19:42:49
554,Chicama,PE,-7.8447,-79.1469,64.94,65,36,10.04,scattered clouds,2022-05-01 19:42:49
555,Ugoofaaru,MV,5.6667,73.0,85.35,74,33,16.89,scattered clouds,2022-05-01 19:42:50
556,Kisanga,TZ,-7.4362,37.7034,73.85,79,31,2.46,scattered clouds,2022-05-01 19:42:50
557,Balaguer,ES,41.7912,0.8109,66.42,67,37,9.69,scattered clouds,2022-05-01 19:42:51
558,Karwar,IN,14.8,74.1333,80.96,79,100,6.96,overcast clouds,2022-05-01 19:42:51
559,Launceston,AU,-41.45,147.1667,57.15,94,75,9.22,broken clouds,2022-05-01 19:42:51
560,Oshkosh,US,44.0247,-88.5426,50.4,85,100,16.11,overcast clouds,2022-05-01 19:42:52
561,Luwingu,ZM,-10.2621,29.9271,63.99,83,100,7.05,overcast clouds,2022-05-01 19:42:52
562,Banda Aceh,ID,5.5577,95.3222,80.4,80,96,13.29,overcast clouds,2022-05-01 19:42:53
563,Tuatapere,NZ,-46.1333,167.6833,47.61,92,12,6.85,few clouds,2022-05-01 19:42:53
564,San Lazaro,BZ,18.0387,-88.6622,84.87,66,97,7.96,overcast clouds,2022-05-01 19:42:53
565,Iralaya,HN,15.0,-83.2333,83.7,73,68,10.67,broken clouds,2022-05-01 19:42:54
566,Lexington Park,US,38.2668,-76.4538,69.48,51,100,9.22,overcast clouds,2022-05-01 19:42:54
567,Spornoye,RU,50.8448,37.2913,43.47,56,55,3.89,broken clouds,2022-05-01 19:42:55
568,Peniche,PT,39.3558,-9.3811,61.29,79,95,17.47,overcast clouds,2022-05-01 19:42:55
569,Abha,SA,18.2164,42.5053,66.02,77,0,6.91,clear sky,2022-05-01 19:42:55
570,Asau,RO,46.4333,26.4,51.28,80,48,1.3,scattered clouds,2022-05-01 19:42:56
571,Andenes,NO,69.3143,16.1194,33.78,93,100,11.5,overcast clouds,2022-05-01 19:42:56
572,Melfort,CA,52.8667,-104.6177,39.33,70,100,9.22,overcast clouds,2022-05-01 19:42:57
573,Hay River,CA,60.8156,-115.7999,49.98,37,20,10.36,few clouds,2022-05-01 19:39:22
574,Bahia Blanca,AR,-38.7196,-62.2724,56.3,52,100,6.02,overcast clouds,2022-05-01 19:40:07
575,Zaoyang,CN,32.1272,112.7542,53.89,50,98,2.84,overcast clouds,2022-05-01 19:42:57
576,Coari,BR,-4.085,-63.1414,80.94,93,91,1.57,light rain,2022-05-01 19:42:58
577,Longview,US,32.5007,-94.7405,86.25,36,0,3.44,clear sky,2022-05-01 19:42:09
578,Eureka,US,40.8021,-124.1637,62.2,69,1,10.0,clear sky,2022-05-01 19:42:38
579,Kirovsk,UA,48.6375,38.6428,43.93,65,16,5.39,few clouds,2022-05-01 19:42:58
580,Kanturk,IE,52.1667,-8.9,52.54,95,97,4.34,overcast clouds,2022-05-01 19:42:59
581,Deqing,CN,30.5448,119.9599,58.95,89,99,3.6,overcast clouds,2022-05-01 19:42:59
582,Tevriz,RU,57.509,72.4042,29.89,93,13,2.57,few clouds,2022-05-01 19:43:00
583,Naifaru,MV,5.4444,73.3657,85.46,74,34,17.94,scattered clouds,2022-05-01 19:43:00
584,Brigantine,US,39.4101,-74.3646,64.6,54,0,13.8,clear sky,2022-05-01 19:39:28
585,Zemio,CF,5.0314,25.1361,71.51,86,99,3.38,overcast clouds,2022-05-01 19:43:01
586,Yeniseysk,RU,58.4497,92.1703,35.11,89,100,10.83,light snow,2022-05-01 19:43:01
587,Lerik,AZ,38.7726,48.4128,50.72,92,100,3.62,overcast clouds,2022-05-01 19:43:01
588,Havelock,US,34.8791,-76.9013,82.36,67,40,14.97,scattered clouds,2022-05-01 19:43:02
589,Ribas Do Rio Pardo,BR,-20.4431,-53.7592,79.99,44,100,2.62,overcast clouds,2022-05-01 19:43:02
590,Khudumelapye,BW,-23.8833,24.75,64.67,51,0,7.92,clear sky,2022-05-01 19:43:03
591,Sarankhola,BD,22.3082,89.7897,79.56,83,68,9.01,broken clouds,2022-05-01 19:43:03
592,Beachwood,US,41.4645,-81.5087,72.73,74,75,18.41,broken clouds,2022-05-01 19:43:04
593,Syriam,MM,16.7722,96.2378,78.91,83,40,5.75,scattered clouds,2022-05-01 19:43:04
594,Ulladulla,AU,-35.35,150.4667,52.7,73,11,4.36,few clouds,2022-05-01 19:43:04
595,Igunga,TZ,-4.2833,33.8833,69.53,72,88,4.29,overcast clouds,2022-05-01 19:41:38
596,Balintore,GB,57.7556,-3.9123,55.49,90,100,2.37,overcast clouds,2022-05-01 19:43:05
597,Sandnessjoen,NO,66.0217,12.6316,43.32,89,75,25.32,broken clouds,2022-05-01 19:43:05
598,Palmer,US,42.1584,-72.3287,71.65,25,20,1.01,few clouds,2022-05-01 19:39:36
599,La Troncal,EC,-2.4,-79.3333,85.44,71,72,3.53,broken clouds,2022-05-01 19:43:06
600,Kupino,RU,54.3663,77.2981,46.15,66,16,12.41,few clouds,2022-05-01 19:43:06
601,Kawalu,ID,-7.3817,108.2082,72.5,98,96,1.3,overcast clouds,2022-05-01 19:43:07
602,Lyubim,RU,58.3625,40.6843,35.51,77,95,3.67,overcast clouds,2022-05-01 19:43:07
603,Manakara,MG,-22.1333,48.0167,70.54,92,27,5.14,scattered clouds,2022-05-01 19:43:07
604,Acara,BR,-1.9608,-48.1967,79.36,93,100,1.57,overcast clouds,2022-05-01 19:43:08
605,Russell,US,32.3502,-85.1999,81.97,69,40,6.91,scattered clouds,2022-05-01 19:43:08
606,Strezhevoy,RU,60.7333,77.5889,27.73,87,13,4.92,few clouds,2022-05-01 19:43:09
607,Bolintin Deal,RO,44.4592,25.8211,58.82,54,100,8.32,overcast clouds,2022-05-01 19:43:09
608,Le Chambon-Feugerolles,FR,45.3969,4.3259,52.36,58,0,4.61,clear sky,2022-05-01 19:43:10
609,Mandurah,AU,-32.55,115.7,54.91,81,0,6.98,clear sky,2022-05-01 19:43:10
610,Tabuk,PH,17.4189,121.4443,73.99,79,85,2.93,overcast clouds,2022-05-01 19:43:11
611,Port Lincoln,AU,-34.7333,135.8667,58.26,88,0,8.61,clear sky,2022-05-01 19:39:25
612,Cristinapolis,BR,-11.4756,-37.7553,76.55,75,56,7.14,broken clouds,2022-05-01 19:43:11
613,Santa Ines,BR,-3.6667,-45.38,79.77,92,100,2.8,overcast clouds,2022-05-01 19:43:12
614,Tafalla,ES,42.5269,-1.6745,61.68,76,25,9.84,scattered clouds,2022-05-01 19:43:12
615,Batagay,RU,67.6333,134.6333,22.41,88,83,6.29,broken clouds,2022-05-01 19:43:12
616,Marsh Harbour,BS,26.5412,-77.0636,75.83,73,23,16.15,few clouds,2022-05-01 19:43:13
617,Udachnyy,RU,66.4167,112.4,0.84,95,17,4.56,few clouds,2022-05-01 19:43:13
618,Uvinza,TZ,-5.1036,30.3911,66.16,93,98,2.19,overcast clouds,2022-05-01 19:43:14
619,Codajas,BR,-3.8367,-62.0569,81.21,90,75,2.89,broken clouds,2022-05-01 19:43:14
620,Murygino,RU,58.7383,49.4582,36.54,87,100,7.65,overcast clouds,2022-05-01 19:43:15
621,Raga,SS,8.4596,25.678,83.64,33,100,5.06,overcast clouds,2022-05-01 19:43:15
622,Necochea,AR,-38.5473,-58.7368,52.77,58,98,10.85,overcast clouds,2022-05-01 19:40:13
623,Jalu,LY,29.0331,21.5482,91.58,13,100,8.63,overcast clouds,2022-05-01 19:43:16
624,Conde,BR,-7.2597,-34.9075,83.66,74,75,12.66,broken clouds,2022-05-01 19:43:16
625,Bundaberg,AU,-24.85,152.35,68.29,93,40,8.05,scattered clouds,2022-05-01 19:43:16
626,Sarahan,IN,31.5167,77.8,54.73,47,0,7.94,clear sky,2022-05-01 19:43:17
627,Duobao,CN,30.67,112.6895,55.51,79,100,5.61,overcast clouds,2022-05-01 19:43:17
628,Smirnykh,RU,49.75,142.8333,29.16,94,100,1.63,overcast clouds,2022-05-01 19:43:18
629,Bedesa,ET,8.9,40.7833,64.06,82,100,3.02,overcast clouds,2022-05-01 19:43:18
630,Sesori,SV,13.7167,-88.3667,91.76,41,100,3.2,overcast clouds,2022-05-01 19:43:19
631,Qinggang,CN,46.6833,126.0833,38.41,76,3,6.71,clear sky,2022-05-01 19:43:19
632,Nyagan,RU,62.1406,65.3936,31.26,98,100,5.75,light snow,2022-05-01 19:43:20
633,Arman,RU,59.7,150.1667,32.63,80,30,0.92,scattered clouds,2022-05-01 19:43:20
634,Kushiro,JP,42.975,144.3747,42.62,94,100,23.29,moderate rain,2022-05-01 19:43:21
635,Grimshaw,CA,56.1834,-117.6027,38.82,87,100,11.5,light rain,2022-05-01 19:43:21
636,Ustyuzhna,RU,58.8394,36.4321,33.33,90,24,4.9,few clouds,2022-05-01 19:43:21
637,Yar-Sale,RU,66.8333,70.8333,10.42,90,15,7.27,few clouds,2022-05-01 19:43:22
638,Manado,ID,1.487,124.8455,77.77,94,40,1.14,scattered clouds,2022-05-01 19:43:22
639,Tautira,PF,-17.7333,-149.15,79.74,74,57,8.12,light rain,2022-05-01 19:43:23
640,Abu Samrah,SY,35.3029,37.1841,60.89,74,0,9.19,clear sky,2022-05-01 19:43:23
641,Gazojak,TM,41.1875,61.4036,68.07,53,99,11.72,overcast clouds,2022-05-01 19:43:24
642,Surgut,RU,61.25,73.4167,28.58,74,0,7.0,clear sky,2022-05-01 19:43:24
643,Lata,PT,40.1629,-8.3327,52.52,91,19,5.91,few clouds,2022-05-01 19:43:24
644,Hofn,IS,64.2539,-15.2082,39.06,66,100,9.48,overcast clouds,2022-05-01 19:43:25
645,Saint Anthony,US,45.0205,-93.218,48.13,88,100,13.8,light rain,2022-05-01 19:43:25
646,Albania,AL,41.0,20.0,58.53,92,100,7.65,moderate rain,2022-05-01 19:43:26
647,Gavrilov Posad,RU,56.5597,40.1175,40.33,73,99,5.59,overcast clouds,2022-05-01 19:43:26
648,Yulara,AU,-25.2406,130.9889,58.84,72,100,5.75,overcast clouds,2022-05-01 19:43:26
649,Balabac,PH,7.9868,117.0645,80.98,81,98,6.24,overcast clouds,2022-05-01 19:43:27
650,Nerchinskiy Zavod,RU,51.3088,119.61,39.11,51,95,8.41,overcast clouds,2022-05-01 19:43:27
651,Kamuli,UG,0.9472,33.1197,64.76,97,99,3.4,overcast clouds,2022-05-01 19:43:28
652,Salinas,US,36.6777,-121.6555,69.73,57,0,9.22,clear sky,2022-05-01 19:43:28
653,Nevelsk,RU,46.6733,141.8633,35.82,96,100,12.77,overcast clouds,2022-05-01 19:43:28
654,Bani Walid,LY,31.7566,13.9942,59.4,74,0,24.47,clear sky,2022-05-01 19:43:29
655,Port-Cartier,CA,50.0334,-66.8654,57.31,76,90,7.29,overcast clouds,2022-05-01 19:43:29
656,Payo,ID,-3.7508,103.6372,73.49,97,100,1.77,light rain,2022-05-01 19:43:30
657,Kindu,CD,-2.95,25.95,68.74,93,100,2.59,overcast clouds,2022-05-01 19:43:30
658,Girona,ES,41.9831,2.8249,64.33,71,20,4.61,few clouds,2022-05-01 19:39:03
659,Kiunga,PG,-6.1219,141.2906,72.32,98,62,1.66,broken clouds,2022-05-01 19:43:31
660,Tessalit,ML,20.1986,1.0114,82.76,12,47,9.28,scattered clouds,2022-05-01 19:43:31
661,Ladario,BR,-19.0047,-57.6017,86.29,51,75,8.05,broken clouds,2022-05-01 19:43:32
662,Fowa,NG,8.9167,6.4,76.53,70,94,8.19,overcast clouds,2022-05-01 19:43:32
663,Mukhen,RU,48.1,136.1,36.81,95,100,1.54,overcast clouds,2022-05-01 19:43:33
664,Westlock,CA,54.1502,-113.8688,53.11,74,100,16.02,overcast clouds,2022-05-01 19:39:36
665,Astrea,CO,9.4983,-73.9759,87.51,65,100,5.35,overcast clouds,2022-05-01 19:43:33
666,Tan An,VN,10.5333,106.4167,77.02,92,99,3.87,overcast clouds,2022-05-01 19:43:34
667,Vytegra,RU,61.0064,36.4481,28.09,98,86,3.83,overcast clouds,2022-05-01 19:43:35
668,Road Town,VG,18.4167,-64.6167,80.69,81,100,14.09,overcast clouds,2022-05-01 19:43:35
669,Rio Cuarto,AR,-33.1307,-64.3499,70.47,26,0,9.22,clear sky,2022-05-01 19:43:05
670,Nago,JP,26.5881,127.9761,63.45,73,100,10.8,light rain,2022-05-01 19:43:36
671,Mount Isa,AU,-20.7333,139.5,69.57,68,23,10.36,few clouds,2022-05-01 19:43:37
672,Havre-Saint-Pierre,CA,50.2334,-63.5986,46.76,53,100,20.71,overcast clouds,2022-05-01 19:43:37
673,Turbat,PK,26.0023,63.044,82.63,37,0,7.92,clear sky,2022-05-01 19:43:38
674,Gari,RU,59.4307,62.3497,32.18,86,99,13.8,overcast clouds,2022-05-01 19:43:39
675,Dera Bugti,PK,29.0307,69.151,93.15,11,100,6.51,overcast clouds,2022-05-01 19:43:40
676,Penzance,GB,50.1186,-5.5371,50.68,91,100,4.65,overcast clouds,2022-05-01 19:43:35
677,Teguldet,RU,57.3064,88.1667,38.1,79,100,10.56,overcast clouds,2022-05-01 19:43:41
678,Namwala,ZM,-15.7504,26.4384,59.92,64,0,4.25,clear sky,2022-05-01 19:43:41
679,Saryozek,KZ,44.3583,77.9753,66.34,32,100,10.8,overcast clouds,2022-05-01 19:43:42
680,Acari,PE,-15.4311,-74.6158,76.82,58,27,9.55,scattered clouds,2022-05-01 19:43:43
681,Luba,GQ,3.4568,8.5547,81.81,81,92,8.59,overcast clouds,2022-05-01 19:43:44
682,Masingbi,SL,8.7833,-11.95,80.62,76,100,5.84,light rain,2022-05-01 19:43:44
683,Manacapuru,BR,-3.2997,-60.6206,81.52,86,32,3.94,scattered clouds,2022-05-01 19:43:45
